[
  {
    "Id": 1,
    "Name": "EU: London, UK",
    "PricePerGigabyte": 0.01,
    "RegionCode": "UK",
    "ContinentCode": "EU",
    "CountryCode": "GB",
    "Latitude": 51.5073509,
    "Longitude": -0.12775829999998223,
    "AllowLatencyRouting": true
  },
  {
    "Id": 2,
    "Name": "NA: New York City, NY",
    "PricePerGigabyte": 0.01,
    "RegionCode": "NY",
    "ContinentCode": "NA",
    "CountryCode": "US",
    "Latitude": 40.7517,
    "Longitude": -73.9972,
    "AllowLatencyRouting": true
  },
  {
    "Id": 3,
    "Name": "NA: Seattle, WA",
    "PricePerGigabyte": 0.01,
    "RegionCode": "WA",
    "ContinentCode": "NA",
    "CountryCode": "US",
    "Latitude": 47.608013,
    "Longitude": -122.335167,
    "AllowLatencyRouting": true
  },
  {
    "Id": 4,
    "Name": "Asia: Singapore, SG",
    "PricePerGigabyte": 0.03,
    "RegionCode": "SG",
    "ContinentCode": "ASIA",
    "CountryCode": "SG",
    "Latitude": 1.352083,
    "Longitude": 103.81983600000001,
    "AllowLatencyRouting": true
  },
  {
    "Id": 6,
    "Name": "EU: Frankfurt, DE",
    "PricePerGigabyte": 0.01,
    "RegionCode": "DE",
    "ContinentCode": "EU",
    "CountryCode": "DE",
    "Latitude": 50.47788,
    "Longitude": 8.682127,
    "AllowLatencyRouting": true
  },
  {
    "Id": 7,
    "Name": "NA: Dallas, TX",
    "PricePerGigabyte": 0.01,
    "RegionCode": "TX",
    "ContinentCode": "NA",
    "CountryCode": "US",
    "Latitude": 32.7766642,
    "Longitude": -96.79698789999998,
    "AllowLatencyRouting": true
  },
  {
    "Id": 8,
    "Name": "Asia: Hong Kong, HK",
    "PricePerGigabyte": 0.03,
    "RegionCode": "HK",
    "ContinentCode": "ASIA",
    "CountryCode": "HK",
    "Latitude": 22.396428,
    "Longitude": 114.109497,
    "AllowLatencyRouting": true
  },
  {
    "Id": 12,
    "Name": "NA: Los Angeles, CA",
    "PricePerGigabyte": 0.01,
    "RegionCode": "LA",
    "ContinentCode": "NA",
    "CountryCode": "US",
    "Latitude": 34.0522342,
    "Longitude": -118.2436849,
    "AllowLatencyRouting": true
  },
  {
    "Id": 14,
    "Name": "NA: Atlanta, GA",
    "PricePerGigabyte": 0.01,
    "RegionCode": "GA",
    "ContinentCode": "NA",
    "CountryCode": "US",
    "Latitude": 35.9140196,
    "Longitude": -81.5389849,
    "AllowLatencyRouting": true
  },
  {
    "Id": 15,
    "Name": "OC: Sydney, SYD",
    "PricePerGigabyte": 0.03,
    "RegionCode": "SYD",
    "ContinentCode": "OC",
    "CountryCode": "AU",
    "Latitude": -33.8674869,
    "Longitude": 151.20699020000006,
    "AllowLatencyRouting": true
  },
  {
    "Id": 16,
    "Name": "EU: Bucharest, RO",
    "PricePerGigabyte": 0.01,
    "RegionCode": "BU",
    "ContinentCode": "EU",
    "CountryCode": "RO",
    "Latitude": 44.30588,
    "Longitude": 25.723294,
    "AllowLatencyRouting": true
  },
  {
    "Id": 17,
    "Name": "Asia: Tokyo, JP",
    "PricePerGigabyte": 0.03,
    "RegionCode": "JP",
    "ContinentCode": "ASIA",
    "CountryCode": "JP",
    "Latitude": 35.652832,
    "Longitude": 139.839478,
    "AllowLatencyRouting": true
  },
  {
    "Id": 18,
    "Name": "EU: Paris, FR",
    "PricePerGigabyte": 0.01,
    "RegionCode": "FR",
    "ContinentCode": "EU",
    "CountryCode": "FR",
    "Latitude": 48.864716,
    "Longitude": 2.349014,
    "AllowLatencyRouting": true
  },
  {
    "Id": 21,
    "Name": "NA: Kansas City, MO",
    "PricePerGigabyte": 0.01,
    "RegionCode": "KC",
    "ContinentCode": "NA",
    "CountryCode": "US",
    "Latitude": 39.125212,
    "Longitude": -100,
    "AllowLatencyRouting": true
  },
  {
    "Id": 23,
    "Name": "NA: Miami, FL",
    "PricePerGigabyte": 0.01,
    "RegionCode": "MI",
    "ContinentCode": "NA",
    "CountryCode": "US",
    "Latitude": 25.761681,
    "Longitude": -80.191788,
    "AllowLatencyRouting": true
  },
  {
    "Id": 24,
    "Name": "NA: Montreal, CA",
    "PricePerGigabyte": 0.01,
    "RegionCode": "MN",
    "ContinentCode": "NA",
    "CountryCode": "CA",
    "Latitude": 45.31341,
    "Longitude": -73.8725,
    "AllowLatencyRouting": true
  },
  {
    "Id": 26,
    "Name": "EU: Amsterdam, NL",
    "PricePerGigabyte": 0.01,
    "RegionCode": "AMS",
    "ContinentCode": "EU",
    "CountryCode": "NL",
    "Latitude": 52.370216,
    "Longitude": 4.895168,
    "AllowLatencyRouting": true
  },
  {
    "Id": 27,
    "Name": "NA: San Jose, CA",
    "PricePerGigabyte": 0.01,
    "RegionCode": "SIL",
    "ContinentCode": "NA",
    "CountryCode": "US",
    "Latitude": 37.279518,
    "Longitude": -121.867905,
    "AllowLatencyRouting": true
  },
  {
    "Id": 28,
    "Name": "SA: Sao Paulo, BR",
    "PricePerGigabyte": 0.045,
    "RegionCode": "BR",
    "ContinentCode": "SA",
    "CountryCode": "BR",
    "Latitude": -23.944841,
    "Longitude": -46.330376,
    "AllowLatencyRouting": true
  },
  {
    "Id": 29,
    "Name": "EU: Madrid, ES",
    "PricePerGigabyte": 0.01,
    "RegionCode": "ES",
    "ContinentCode": "EU",
    "CountryCode": "ES",
    "Latitude": 40.416775,
    "Longitude": -3.70379,
    "AllowLatencyRouting": true
  },
  {
    "Id": 30,
    "Name": "NA: Chicago, IL",
    "PricePerGigabyte": 0.01,
    "RegionCode": "IL",
    "ContinentCode": "NA",
    "CountryCode": "US",
    "Latitude": 41.881832,
    "Longitude": -87.623177,
    "AllowLatencyRouting": true
  },
  {
    "Id": 31,
    "Name": "EU: Oslo, NO",
    "PricePerGigabyte": 0.01,
    "RegionCode": "NO",
    "ContinentCode": "EU",
    "CountryCode": "NO",
    "Latitude": 59.911491,
    "Longitude": 10.757933,
    "AllowLatencyRouting": true
  },
  {
    "Id": 32,
    "Name": "EU: Moscow, RU",
    "PricePerGigabyte": 0.01,
    "RegionCode": "RU",
    "ContinentCode": "EU",
    "CountryCode": "RU",
    "Latitude": 55.751244,
    "Longitude": 37.618423,
    "AllowLatencyRouting": true
  },
  {
    "Id": 33,
    "Name": "EU: Milan, IT",
    "PricePerGigabyte": 0.01,
    "RegionCode": "IT",
    "ContinentCode": "EU",
    "CountryCode": "IT",
    "Latitude": 45.464211,
    "Longitude": 9.191383,
    "AllowLatencyRouting": true
  },
  {
    "Id": 34,
    "Name": "AF: Johannesburg, ZA",
    "PricePerGigabyte": 0.06,
    "RegionCode": "JH",
    "ContinentCode": "AF",
    "CountryCode": "ZA",
    "Latitude": -26.195246,
    "Longitude": 28.034088,
    "AllowLatencyRouting": true
  },
  {
    "Id": 35,
    "Name": "Asia: Bangalore, IN",
    "PricePerGigabyte": 0.03,
    "RegionCode": "IN",
    "ContinentCode": "ASIA",
    "CountryCode": "IN",
    "Latitude": 12.972442,
    "Longitude": 77.580643,
    "AllowLatencyRouting": true
  },
  {
    "Id": 36,
    "Name": "EU: Prague, CZ",
    "PricePerGigabyte": 0.01,
    "RegionCode": "CZ",
    "ContinentCode": "EU",
    "CountryCode": "CZ",
    "Latitude": 50.08804,
    "Longitude": 14.42076,
    "AllowLatencyRouting": true
  },
  {
    "Id": 37,
    "Name": "Asia: Istanbul, TR",
    "PricePerGigabyte": 0.03,
    "RegionCode": "TR",
    "ContinentCode": "ASIA",
    "CountryCode": "TR",
    "Latitude": 41.015137,
    "Longitude": 28.97953,
    "AllowLatencyRouting": true
  },
  {
    "Id": 38,
    "Name": "EU: Warsaw, PL",
    "PricePerGigabyte": 0.01,
    "RegionCode": "PL",
    "ContinentCode": "EU",
    "CountryCode": "PL",
    "Latitude": 52.2296756,
    "Longitude": 21.0122287,
    "AllowLatencyRouting": true
  },
  {
    "Id": 39,
    "Name": "NA: Toronto, CA",
    "PricePerGigabyte": 0.01,
    "RegionCode": "CA",
    "ContinentCode": "NA",
    "CountryCode": "CA",
    "Latitude": 43.653908,
    "Longitude": -79.384293,
    "AllowLatencyRouting": true
  },
  {
    "Id": 42,
    "Name": "Asia: Bangkok, TH",
    "PricePerGigabyte": 0.03,
    "RegionCode": "TH",
    "ContinentCode": "ASIA",
    "CountryCode": "TH",
    "Latitude": 13.736717,
    "Longitude": 100.523186,
    "AllowLatencyRouting": true
  },
  {
    "Id": 45,
    "Name": "EU: Vilnius, LT",
    "PricePerGigabyte": 0.01,
    "RegionCode": "LT",
    "ContinentCode": "EU",
    "CountryCode": "LT",
    "Latitude": 54.687157,
    "Longitude": 25.279652,
    "AllowLatencyRouting": true
  },
  {
    "Id": 46,
    "Name": "OC: Perth, AU",
    "PricePerGigabyte": 0.03,
    "RegionCode": "PER",
    "ContinentCode": "OC",
    "CountryCode": "AU",
    "Latitude": -31.953512,
    "Longitude": 115.857048,
    "AllowLatencyRouting": true
  },
  {
    "Id": 47,
    "Name": "OC: Melbourne, AU",
    "PricePerGigabyte": 0.03,
    "RegionCode": "MEL",
    "ContinentCode": "OC",
    "CountryCode": "AU",
    "Latitude": -37.814,
    "Longitude": 144.96332,
    "AllowLatencyRouting": true
  },
  {
    "Id": 48,
    "Name": "OC: Auckland, NZ",
    "PricePerGigabyte": 0.03,
    "RegionCode": "AUC",
    "ContinentCode": "OC",
    "CountryCode": "NZ",
    "Latitude": -37.8,
    "Longitude": 174.763336,
    "AllowLatencyRouting": true
  },
  {
    "Id": 49,
    "Name": "OC: Brisbane, AU",
    "PricePerGigabyte": 0.03,
    "RegionCode": "BRB",
    "ContinentCode": "OC",
    "CountryCode": "AU",
    "Latitude": -27.470125,
    "Longitude": 153.021072,
    "AllowLatencyRouting": true
  },
  {
    "Id": 50,
    "Name": "NA: Ashburn, VA",
    "PricePerGigabyte": 0.01,
    "RegionCode": "ASB",
    "ContinentCode": "NA",
    "CountryCode": "US",
    "Latitude": 39.04372,
    "Longitude": -77.48749,
    "AllowLatencyRouting": true
  },
  {
    "Id": 51,
    "Name": "Asia: Seoul, KR",
    "PricePerGigabyte": 0.03,
    "RegionCode": "KR",
    "ContinentCode": "ASIA",
    "CountryCode": "KR",
    "Latitude": 37.5326,
    "Longitude": 127.024612,
    "AllowLatencyRouting": true
  },
  {
    "Id": 53,
    "Name": "OC: Adelaide, AU",
    "PricePerGigabyte": 0.03,
    "RegionCode": "ADL",
    "ContinentCode": "OC",
    "CountryCode": "AU",
    "Latitude": -34.9285,
    "Longitude": 138.6007,
    "AllowLatencyRouting": true
  },
  {
    "Id": 54,
    "Name": "Asia: Mumbai, IN",
    "PricePerGigabyte": 0.03,
    "RegionCode": "MU",
    "ContinentCode": "ASIA",
    "CountryCode": "IN",
    "Latitude": 19.07283,
    "Longitude": 72.88261,
    "AllowLatencyRouting": true
  },
  {
    "Id": 55,
    "Name": "EU: Vienna, AT",
    "PricePerGigabyte": 0.01,
    "RegionCode": "AT",
    "ContinentCode": "EU",
    "CountryCode": "AT",
    "Latitude": 48.210033,
    "Longitude": 16.363449,
    "AllowLatencyRouting": true
  },
  {
    "Id": 56,
    "Name": "EU: Helsinki, FI",
    "PricePerGigabyte": 0.01,
    "RegionCode": "FI",
    "ContinentCode": "EU",
    "CountryCode": "FI",
    "Latitude": 60.192059,
    "Longitude": 24.945831,
    "AllowLatencyRouting": true
  },
  {
    "Id": 57,
    "Name": "Asia: Tel Aviv, IL",
    "PricePerGigabyte": 0.03,
    "RegionCode": "ISR",
    "ContinentCode": "ASIA",
    "CountryCode": "IL",
    "Latitude": 32.109333,
    "Longitude": 34.855499,
    "AllowLatencyRouting": true
  },
  {
    "Id": 58,
    "Name": "NA: Vancouver, CA",
    "PricePerGigabyte": 0.01,
    "RegionCode": "VA",
    "ContinentCode": "NA",
    "CountryCode": "CA",
    "Latitude": 49.246292,
    "Longitude": -123.116226,
    "AllowLatencyRouting": true
  },
  {
    "Id": 59,
    "Name": "ME: Dubai, AE",
    "PricePerGigabyte": 0.06,
    "RegionCode": "AE",
    "ContinentCode": "AF",
    "CountryCode": "AE",
    "Latitude": 25.276987,
    "Longitude": 55.296249,
    "AllowLatencyRouting": true
  },
  {
    "Id": 60,
    "Name": "NA: Denver, CO",
    "PricePerGigabyte": 0.01,
    "RegionCode": "DEN",
    "ContinentCode": "NA",
    "CountryCode": "US",
    "Latitude": 39.742043,
    "Longitude": -104.991531,
    "AllowLatencyRouting": true
  },
  {
    "Id": 61,
    "Name": "EU: Stockholm, SE",
    "PricePerGigabyte": 0.01,
    "RegionCode": "SE",
    "ContinentCode": "EU",
    "CountryCode": "SE",
    "Latitude": 59.334591,
    "Longitude": 18.06324,
    "AllowLatencyRouting": true
  },
  {
    "Id": 62,
    "Name": "EU: Zurich, CH",
    "PricePerGigabyte": 0.01,
    "RegionCode": "CH",
    "ContinentCode": "EU",
    "CountryCode": "CH",
    "Latitude": 47.36667,
    "Longitude": 8.55,
    "AllowLatencyRouting": true
  },
  {
    "Id": 63,
    "Name": "Asia: New Delhi, IN",
    "PricePerGigabyte": 0.03,
    "RegionCode": "ND",
    "ContinentCode": "ASIA",
    "CountryCode": "IN",
    "Latitude": 28.6448,
    "Longitude": 77.216721,
    "AllowLatencyRouting": true
  },
  {
    "Id": 64,
    "Name": "AF: Lagos, NG",
    "PricePerGigabyte": 0.06,
    "RegionCode": "NG",
    "ContinentCode": "AF",
    "CountryCode": "NG",
    "Latitude": 6.465422,
    "Longitude": 3.406448,
    "AllowLatencyRouting": true
  },
  {
    "Id": 65,
    "Name": "SA: Santiago, CL",
    "PricePerGigabyte": 0.045,
    "RegionCode": "CL",
    "ContinentCode": "SA",
    "CountryCode": "CL",
    "Latitude": -33.447487,
    "Longitude": -70.673676,
    "AllowLatencyRouting": true
  },
  {
    "Id": 66,
    "Name": "EU: Sofia, BG",
    "PricePerGigabyte": 0.01,
    "RegionCode": "BG",
    "ContinentCode": "EU",
    "CountryCode": "BG",
    "Latitude": 42.698334,
    "Longitude": 23.319941,
    "AllowLatencyRouting": true
  },
  {
    "Id": 67,
    "Name": "EU: Lisbon, PT",
    "PricePerGigabyte": 0.01,
    "RegionCode": "PT",
    "ContinentCode": "EU",
    "CountryCode": "PT",
    "Latitude": 38.736946,
    "Longitude": -9.142685,
    "AllowLatencyRouting": true
  },
  {
    "Id": 68,
    "Name": "EU: Copenhagen, DK",
    "PricePerGigabyte": 0.01,
    "RegionCode": "DK",
    "ContinentCode": "EU",
    "CountryCode": "DK",
    "Latitude": 55.676098,
    "Longitude": 12.568337,
    "AllowLatencyRouting": true
  },
  {
    "Id": 70,
    "Name": "EU: Dublin, IE",
    "PricePerGigabyte": 0.01,
    "RegionCode": "IE",
    "ContinentCode": "EU",
    "CountryCode": "IE",
    "Latitude": 53.35014,
    "Longitude": -6.266155,
    "AllowLatencyRouting": true
  },
  {
    "Id": 71,
    "Name": "NA: Phoenix, AZ",
    "PricePerGigabyte": 0.01,
    "RegionCode": "PHX",
    "ContinentCode": "NA",
    "CountryCode": "US",
    "Latitude": 33.448376,
    "Longitude": -112.074036,
    "AllowLatencyRouting": true
  },
  {
    "Id": 72,
    "Name": "Asia: Chennai, IN",
    "PricePerGigabyte": 0.03,
    "RegionCode": "CEN",
    "ContinentCode": "ASIA",
    "CountryCode": "IN",
    "Latitude": 13.003387,
    "Longitude": 80.255043,
    "AllowLatencyRouting": true
  },
  {
    "Id": 73,
    "Name": "EU: Athens, GR",
    "PricePerGigabyte": 0.01,
    "RegionCode": "GR",
    "ContinentCode": "EU",
    "CountryCode": "GR",
    "Latitude": 37.9838,
    "Longitude": 23.7278,
    "AllowLatencyRouting": true
  },
  {
    "Id": 74,
    "Name": "AF: Cairo, EG",
    "PricePerGigabyte": 0.06,
    "RegionCode": "EG",
    "ContinentCode": "AF",
    "CountryCode": "EG",
    "Latitude": 30.033333,
    "Longitude": 31.233334,
    "AllowLatencyRouting": true
  },
  {
    "Id": 75,
    "Name": "EU: Krasnoyarsk, RU",
    "PricePerGigabyte": 0.01,
    "RegionCode": "KY",
    "ContinentCode": "EU",
    "CountryCode": "RU",
    "Latitude": 58.4501,
    "Longitude": 92.186768,
    "AllowLatencyRouting": true
  },
  {
    "Id": 76,
    "Name": "Asia: Singapore 2, SG",
    "PricePerGigabyte": 0.03,
    "RegionCode": "SG2",
    "ContinentCode": "ASIA",
    "CountryCode": "SG",
    "Latitude": 1.352083,
    "Longitude": 103.81983600000001,
    "AllowLatencyRouting": true
  },
  {
    "Id": 77,
    "Name": "EU: Bratislava, SK",
    "PricePerGigabyte": 0.01,
    "RegionCode": "SK",
    "ContinentCode": "EU",
    "CountryCode": "SK",
    "Latitude": 48.148598,
    "Longitude": 17.107748,
    "AllowLatencyRouting": true
  },
  {
    "Id": 78,
    "Name": "AF: Nairobi, KE",
    "PricePerGigabyte": 0.06,
    "RegionCode": "KE",
    "ContinentCode": "AF",
    "CountryCode": "KE",
    "Latitude": -1.286389,
    "Longitude": 36.817223,
    "AllowLatencyRouting": true
  },
  {
    "Id": 81,
    "Name": "LATAM: Mexico City, MX",
    "PricePerGigabyte": 0.01,
    "RegionCode": "MX",
    "ContinentCode": "SA",
    "CountryCode": "MX",
    "Latitude": 19.432608,
    "Longitude": -99.133209,
    "AllowLatencyRouting": true
  },
  {
    "Id": 82,
    "Name": "Asia: Almaty, KZ",
    "PricePerGigabyte": 0.03,
    "RegionCode": "KZ",
    "ContinentCode": "ASIA",
    "CountryCode": "KZ",
    "Latitude": 43.238949,
    "Longitude": 76.889709,
    "AllowLatencyRouting": true
  },
  {
    "Id": 83,
    "Name": "SA: Buenos Aires, AR",
    "PricePerGigabyte": 0.045,
    "RegionCode": "AR",
    "ContinentCode": "SA",
    "CountryCode": "AR",
    "Latitude": -34.603722,
    "Longitude": -58.381592,
    "AllowLatencyRouting": true
  },
  {
    "Id": 84,
    "Name": "LATAM: San Pedro, CR",
    "PricePerGigabyte": 0.045,
    "RegionCode": "CR",
    "ContinentCode": "SA",
    "CountryCode": "CR",
    "Latitude": 10.083333,
    "Longitude": -84.249999,
    "AllowLatencyRouting": true
  },
  {
    "Id": 85,
    "Name": "EU: Kyiv, UA",
    "PricePerGigabyte": 0.01,
    "RegionCode": "UA",
    "ContinentCode": "EU",
    "CountryCode": "UA",
    "Latitude": 50.450001,
    "Longitude": 30.523333,
    "AllowLatencyRouting": true
  },
  {
    "Id": 86,
    "Name": "SA: Bogota, SA",
    "PricePerGigabyte": 0.045,
    "RegionCode": "CO",
    "ContinentCode": "SA",
    "CountryCode": "CO",
    "Latitude": 4.624335,
    "Longitude": -74.063644,
    "AllowLatencyRouting": true
  },
  {
    "Id": 88,
    "Name": "SA: Lima, PE",
    "PricePerGigabyte": 0.045,
    "RegionCode": "PE",
    "ContinentCode": "SA",
    "CountryCode": "PE",
    "Latitude": -12.046374,
    "Longitude": -77.042793,
    "AllowLatencyRouting": true
  },
  {
    "Id": 89,
    "Name": "SA: Quito, EC",
    "PricePerGigabyte": 0.045,
    "RegionCode": "EC",
    "ContinentCode": "SA",
    "CountryCode": "EC",
    "Latitude": -0.180653,
    "Longitude": -78.467834,
    "AllowLatencyRouting": true
  },
  {
    "Id": 90,
    "Name": "SA: Rio de Janeiro, BR",
    "PricePerGigabyte": 0.045,
    "RegionCode": "RJ",
    "ContinentCode": "SA",
    "CountryCode": "BR",
    "Latitude": -22.908333,
    "Longitude": -43.196388,
    "AllowLatencyRouting": true
  },
  {
    "Id": 91,
    "Name": "Asia: Jakarta, ID",
    "PricePerGigabyte": 0.03,
    "RegionCode": "ID",
    "ContinentCode": "ASIA",
    "CountryCode": "ID",
    "Latitude": -6.2,
    "Longitude": 106.816666,
    "AllowLatencyRouting": true
  },
  {
    "Id": 92,
    "Name": "Asia: Ho Chi Minh, VN",
    "PricePerGigabyte": 0.03,
    "RegionCode": "VN",
    "ContinentCode": "ASIA",
    "CountryCode": "VN",
    "Latitude": 10.762622,
    "Longitude": 106.660172,
    "AllowLatencyRouting": true
  },
  {
    "Id": 93,
    "Name": "Asia: Manila, PH",
    "PricePerGigabyte": 0.03,
    "RegionCode": "PH",
    "ContinentCode": "ASIA",
    "CountryCode": "PH",
    "Latitude": 14.599512,
    "Longitude": 120.984222,
    "AllowLatencyRouting": true
  },
  {
    "Id": 94,
    "Name": "Asia: Kuala Lumpur, MY",
    "PricePerGigabyte": 0.03,
    "RegionCode": "MY",
    "ContinentCode": "ASIA",
    "CountryCode": "MY",
    "Latitude": 3.140853,
    "Longitude": 101.693207,
    "AllowLatencyRouting": true
  },
  {
    "Id": 95,
    "Name": "LATAM: Porto Alegre, BR",
    "PricePerGigabyte": 0.045,
    "RegionCode": "PA",
    "ContinentCode": "SA",
    "CountryCode": "BR",
    "Latitude": -30.03306,
    "Longitude": -51.23,
    "AllowLatencyRouting": true
  },
  {
    "Id": 96,
    "Name": "LATAM: Fortaleza, BR",
    "PricePerGigabyte": 0.045,
    "RegionCode": "FO",
    "ContinentCode": "SA",
    "CountryCode": "BR",
    "Latitude": -3.731862,
    "Longitude": -38.526669,
    "AllowLatencyRouting": true
  },
  {
    "Id": 98,
    "Name": "EU: Ljubljana, SI",
    "PricePerGigabyte": 0.01,
    "RegionCode": "LJ",
    "ContinentCode": "EU",
    "CountryCode": "SI",
    "Latitude": 46.056946,
    "Longitude": 14.505751,
    "AllowLatencyRouting": true
  },
  {
    "Id": 99,
    "Name": "EU: Luxembourg, LU",
    "PricePerGigabyte": 0.01,
    "RegionCode": "LU",
    "ContinentCode": "EU",
    "CountryCode": "LU",
    "Latitude": 49.611622,
    "Longitude": 6.131935,
    "AllowLatencyRouting": true
  },
  {
    "Id": 100,
    "Name": "EU: Marseille, FR",
    "PricePerGigabyte": 0.01,
    "RegionCode": "MS",
    "ContinentCode": "EU",
    "CountryCode": "FR",
    "Latitude": 43.296398,
    "Longitude": 5.37,
    "AllowLatencyRouting": true
  },
  {
    "Id": 101,
    "Name": "EU: Chisinau, MD",
    "PricePerGigabyte": 0.01,
    "RegionCode": "MD",
    "ContinentCode": "EU",
    "CountryCode": "MD",
    "Latitude": 47.00367,
    "Longitude": 28.907089,
    "AllowLatencyRouting": true
  },
  {
    "Id": 102,
    "Name": "EU: Khabarovsk, RU",
    "PricePerGigabyte": 0.01,
    "RegionCode": "KH",
    "ContinentCode": "EU",
    "CountryCode": "RU",
    "Latitude": 48.5027313,
    "Longitude": 135.0662599,
    "AllowLatencyRouting": true
  },
  {
    "Id": 103,
    "Name": "Asia: Nicosia, CY",
    "PricePerGigabyte": 0.03,
    "RegionCode": "CY",
    "ContinentCode": "ASIA",
    "CountryCode": "CY",
    "Latitude": 35.185566,
    "Longitude": 33.382275,
    "AllowLatencyRouting": true
  },
  {
    "Id": 104,
    "Name": "EU: Novi Travnik, BA",
    "PricePerGigabyte": 0.01,
    "RegionCode": "BA",
    "ContinentCode": "EU",
    "CountryCode": "BA",
    "Latitude": 43.85643,
    "Longitude": 18.413029,
    "AllowLatencyRouting": true
  },
  {
    "Id": 105,
    "Name": "Asia: Tbilisi, GE",
    "PricePerGigabyte": 0.03,
    "RegionCode": "GEO",
    "ContinentCode": "ASIA",
    "CountryCode": "GE",
    "Latitude": 41.716667,
    "Longitude": 44.783333,
    "AllowLatencyRouting": true
  },
  {
    "Id": 106,
    "Name": "EU: Riga, LV",
    "PricePerGigabyte": 0.01,
    "RegionCode": "LV",
    "ContinentCode": "EU",
    "CountryCode": "LV",
    "Latitude": 56.946285,
    "Longitude": 24.105078,
    "AllowLatencyRouting": true
  },
  {
    "Id": 107,
    "Name": "EU: Budapest, HU",
    "PricePerGigabyte": 0.01,
    "RegionCode": "HU",
    "ContinentCode": "EU",
    "CountryCode": "HU",
    "Latitude": 47.497913,
    "Longitude": 19.040236,
    "AllowLatencyRouting": true
  },
  {
    "Id": 108,
    "Name": "Asia: Baku, AZ",
    "PricePerGigabyte": 0.03,
    "RegionCode": "AZ",
    "ContinentCode": "ASIA",
    "CountryCode": "AZ",
    "Latitude": 40.409264,
    "Longitude": 49.867092,
    "AllowLatencyRouting": true
  },
  {
    "Id": 109,
    "Name": "NA: Houston, TX",
    "PricePerGigabyte": 0.01,
    "RegionCode": "HOU",
    "ContinentCode": "NA",
    "CountryCode": "US",
    "Latitude": 29.749907,
    "Longitude": -95.358421,
    "AllowLatencyRouting": true
  },
  {
    "Id": 110,
    "Name": "EU: Belgrade, RS",
    "PricePerGigabyte": 0.01,
    "RegionCode": "RS",
    "ContinentCode": "EU",
    "CountryCode": "RS",
    "Latitude": 44.787197,
    "Longitude": 20.457273,
    "AllowLatencyRouting": true
  },
  {
    "Id": 111,
    "Name": "ASIA: Karachi, PK",
    "PricePerGigabyte": 0.03,
    "RegionCode": "PK",
    "ContinentCode": "ASIA",
    "CountryCode": "PK",
    "Latitude": 24.860966,
    "Longitude": 66.990501,
    "AllowLatencyRouting": true
  },
  {
    "Id": 112,
    "Name": "EU: Keflavik, IS",
    "PricePerGigabyte": 0.01,
    "RegionCode": "IS",
    "ContinentCode": "EU",
    "CountryCode": "IS",
    "Latitude": 64.00492,
    "Longitude": -22.56242,
    "AllowLatencyRouting": true
  },
  {
    "Id": 113,
    "Name": "ASIA: Taipei, TW",
    "PricePerGigabyte": 0.03,
    "RegionCode": "TW",
    "ContinentCode": "ASIA",
    "CountryCode": "TW",
    "Latitude": 25.105497,
    "Longitude": 121.597366,
    "AllowLatencyRouting": true
  },
  {
    "Id": 114,
    "Name": "ME: Baghdad, IQ",
    "PricePerGigabyte": 0.06,
    "RegionCode": "IQ",
    "ContinentCode": "AF",
    "CountryCode": "IQ",
    "Latitude": 33.312805,
    "Longitude": 44.361488,
    "AllowLatencyRouting": true
  },
  {
    "Id": 115,
    "Name": "NA: Ogden, UT",
    "PricePerGigabyte": 0.01,
    "RegionCode": "OG",
    "ContinentCode": "NA",
    "CountryCode": "US",
    "Latitude": 41.223,
    "Longitude": -111.97383,
    "AllowLatencyRouting": true
  },
  {
    "Id": 117,
    "Name": "ME: Riyadh, SA",
    "PricePerGigabyte": 0.06,
    "RegionCode": "RI",
    "ContinentCode": "AF",
    "CountryCode": "SA",
    "Latitude": 24.774265,
    "Longitude": 46.738586,
    "AllowLatencyRouting": true
  },
  {
    "Id": 118,
    "Name": "LATAM: San Juan, PR",
    "PricePerGigabyte": 0.045,
    "RegionCode": "PR",
    "ContinentCode": "SA",
    "CountryCode": "PR",
    "Latitude": 18.200178,
    "Longitude": -66.664513,
    "AllowLatencyRouting": true
  },
  {
    "Id": 119,
    "Name": "NA: Pittsburgh, PA",
    "PricePerGigabyte": 0.01,
    "RegionCode": "PB",
    "ContinentCode": "NA",
    "CountryCode": "US",
    "Latitude": 40.440624,
    "Longitude": -79.995888,
    "AllowLatencyRouting": true
  },
  {
    "Id": 120,
    "Name": "NA:  Honolulu, HI",
    "PricePerGigabyte": 0.01,
    "RegionCode": "HI",
    "ContinentCode": "NA",
    "CountryCode": "US",
    "Latitude": 21.315603,
    "Longitude": -157.858093,
    "AllowLatencyRouting": true
  },
  {
    "Id": 121,
    "Name": "AF: Tunis, TN",
    "PricePerGigabyte": 0.06,
    "RegionCode": "TN",
    "ContinentCode": "AF",
    "CountryCode": "TN",
    "Latitude": 36.806389,
    "Longitude": 10.181667,
    "AllowLatencyRouting": true
  },
  {
    "Id": 122,
    "Name": "LATAM: Guatemala, GT",
    "PricePerGigabyte": 0.045,
    "RegionCode": "GT",
    "ContinentCode": "SA",
    "CountryCode": "GT",
    "Latitude": 14.628434,
    "Longitude": -90.522713,
    "AllowLatencyRouting": true
  },
  {
    "Id": 123,
    "Name": "LATAM: Brasilia, BR",
    "PricePerGigabyte": 0.045,
    "RegionCode": "BS",
    "ContinentCode": "SA",
    "CountryCode": "BR",
    "Latitude": -15.793889,
    "Longitude": -47.882778,
    "AllowLatencyRouting": true
  },
  {
    "Id": 124,
    "Name": "LATAM: Sucre, BO",
    "PricePerGigabyte": 0.045,
    "RegionCode": "BOL",
    "ContinentCode": "SA",
    "CountryCode": "BO",
    "Latitude": -19.019585,
    "Longitude": -65.261963,
    "AllowLatencyRouting": true
  },
  {
    "Id": 125,
    "Name": "AF: Cape Town, SA",
    "PricePerGigabyte": 0.06,
    "RegionCode": "CT",
    "ContinentCode": "AF",
    "CountryCode": "ZA",
    "Latitude": -33.918861,
    "Longitude": 18.4233,
    "AllowLatencyRouting": true
  },
  {
    "Id": 126,
    "Name": "NA: Boston, MA",
    "PricePerGigabyte": 0.01,
    "RegionCode": "BO",
    "ContinentCode": "NA",
    "CountryCode": "US",
    "Latitude": 42.361145,
    "Longitude": -71.057083,
    "AllowLatencyRouting": true
  },
  {
    "Id": 127,
    "Name": "Asia: Yerevan, AM",
    "PricePerGigabyte": 0.03,
    "RegionCode": "AM",
    "ContinentCode": "ASIA",
    "CountryCode": "AM",
    "Latitude": 40.1772,
    "Longitude": 44.50349,
    "AllowLatencyRouting": true
  },
  {
    "Id": 128,
    "Name": "ME: Fujairah, UAE",
    "PricePerGigabyte": 0.06,
    "RegionCode": "FU",
    "ContinentCode": "AF",
    "CountryCode": "AE",
    "Latitude": 25.128648,
    "Longitude": 56.326712,
    "AllowLatencyRouting": true
  },
  {
    "Id": 130,
    "Name": "ME: Bahrain, BH",
    "PricePerGigabyte": 0.06,
    "RegionCode": "BHR",
    "ContinentCode": "AF",
    "CountryCode": "BH",
    "Latitude": 26.201,
    "Longitude": 50.606998,
    "AllowLatencyRouting": true
  },
  {
    "Id": 131,
    "Name": "Asia: Phnom Penh, KH",
    "PricePerGigabyte": 0.03,
    "RegionCode": "PP",
    "ContinentCode": "ASIA",
    "CountryCode": "KH",
    "Latitude": 11.562108,
    "Longitude": 104.888535,
    "AllowLatencyRouting": true
  },
  {
    "Id": 132,
    "Name": "EU: Dusseldorf, DE",
    "PricePerGigabyte": 0.01,
    "RegionCode": "DD",
    "ContinentCode": "EU",
    "CountryCode": "DE",
    "Latitude": 51.233334,
    "Longitude": 6.783333,
    "AllowLatencyRouting": true
  },
  {
    "Id": 133,
    "Name": "Asia: Kathmandu, NP",
    "PricePerGigabyte": 0.03,
    "RegionCode": "NP",
    "ContinentCode": "ASIA",
    "CountryCode": "NP",
    "Latitude": 27.700769,
    "Longitude": 85.30014,
    "AllowLatencyRouting": true
  },
  {
    "Id": 134,
    "Name": "Asia: Bishkek, KG",
    "PricePerGigabyte": 0.03,
    "RegionCode": "KG",
    "ContinentCode": "ASIA",
    "CountryCode": "KG",
    "Latitude": 42.882004,
    "Longitude": 74.582748,
    "AllowLatencyRouting": true
  },
  {
    "Id": 135,
    "Name": "Asia: Ulaanbaatar, MN",
    "PricePerGigabyte": 0.03,
    "RegionCode": "MG",
    "ContinentCode": "ASIA",
    "CountryCode": "MN",
    "Latitude": 47.92123,
    "Longitude": 106.918556,
    "AllowLatencyRouting": true
  },
  {
    "Id": 136,
    "Name": "AF: Amman, JO",
    "PricePerGigabyte": 0.06,
    "RegionCode": "JO",
    "ContinentCode": "AF",
    "CountryCode": "JO",
    "Latitude": 31.963158,
    "Longitude": 35.930359,
    "AllowLatencyRouting": true
  },
  {
    "Id": 137,
    "Name": "Asia: Dhaka, BD",
    "PricePerGigabyte": 0.03,
    "RegionCode": "BD",
    "ContinentCode": "ASIA",
    "CountryCode": "BD",
    "Latitude": 23.777176,
    "Longitude": 90.399452,
    "AllowLatencyRouting": true
  },
  {
    "Id": 138,
    "Name": "EU: Zagreb, HR",
    "PricePerGigabyte": 0.01,
    "RegionCode": "HR",
    "ContinentCode": "EU",
    "CountryCode": "HR",
    "Latitude": 45.815399,
    "Longitude": 15.966568,
    "AllowLatencyRouting": true
  },
  {
    "Id": 139,
    "Name": "AF: Luanda, AO",
    "PricePerGigabyte": 0.06,
    "RegionCode": "AO",
    "ContinentCode": "AF",
    "CountryCode": "AO",
    "Latitude": -8.838333,
    "Longitude": 13.234444,
    "AllowLatencyRouting": true
  },
  {
    "Id": 140,
    "Name": "EU: Frankfurt 2, DE2",
    "PricePerGigabyte": 0.01,
    "RegionCode": "DE2",
    "ContinentCode": "EU",
    "CountryCode": "DE",
    "Latitude": 0,
    "Longitude": 0,
    "AllowLatencyRouting": true
  },
  {
    "Id": 141,
    "Name": "NA: Charlotte, NC",
    "PricePerGigabyte": 0.01,
    "RegionCode": "CLT",
    "ContinentCode": "NA",
    "CountryCode": "US",
    "Latitude": 35.227085,
    "Longitude": -80.843124,
    "AllowLatencyRouting": true
  },
  {
    "Id": 142,
    "Name": "NA: Minneapolis, MN",
    "PricePerGigabyte": 0.01,
    "RegionCode": "MSP",
    "ContinentCode": "NA",
    "CountryCode": "US",
    "Latitude": 44.986656,
    "Longitude": -93.258133,
    "AllowLatencyRouting": true
  },
  {
    "Id": 143,
    "Name": "OC: Hagatna: GU",
    "PricePerGigabyte": 0.03,
    "RegionCode": "GU",
    "ContinentCode": "ASIA",
    "CountryCode": "GU",
    "Latitude": 13.4464611900061,
    "Longitude": 144.780527137048,
    "AllowLatencyRouting": true
  },
  {
    "Id": 144,
    "Name": "ME: Baghdad 2, IQ",
    "PricePerGigabyte": 0.06,
    "RegionCode": "IQ2",
    "ContinentCode": "AF",
    "CountryCode": "IQ",
    "Latitude": 33.312805,
    "Longitude": 44.361488,
    "AllowLatencyRouting": true
  },
  {
    "Id": 145,
    "Name": "Asia: Kolkata, IN",
    "PricePerGigabyte": 0.03,
    "RegionCode": "CCU",
    "ContinentCode": "ASIA",
    "CountryCode": "IN",
    "Latitude": 22.5763071111336,
    "Longitude": 88.3652036729909,
    "AllowLatencyRouting": false
  }
]
